{
"type": "FeatureCollection",
"name": "FireStation",
"crs": { "type": "name", "properties": { "name": "urn:ogc:def:crs:OGC:1.3:CRS84" } },
"features": [
{ "type": "Feature", "properties": { "OBJECTID": 1, "FOLIO": "3660070000552", "ID": 34, "NAME": "Cutler Bay Fire 34", "ADDRESS": "10850 SW 211TH ST", "CITY": "Cutler Bay", "ZIPCODE": 33189, "MUNICID": "30", "TYPE": "B", "LAT": 25.57091, "LON": -80.36734, "POINT_X": 864717.36211396998, "POINT_Y": 450235.77142892004, "GlobalID": "{A878BAEF-0A5E-4466-AA76-32AC09A8C5CA}" }, "geometry": { "type": "Point", "coordinates": [ -80.367337798999984, 25.570911240000044 ] } },
{ "type": "Feature", "properties": { "OBJECTID": 2, "FOLIO": "0530240061390", "ID": 35, "NAME": "Miami Springs Fire 35", "ADDRESS": "201 WESTWARD DR", "CITY": "Miami Springs", "ZIPCODE": 33166, "MUNICID": "05", "TYPE": "B", "LAT": 25.82138, "LON": -80.28455, "POINT_X": 891519.24834694003, "POINT_Y": 541412.02162583999, "GlobalID": "{CA6C96D2-F049-45D4-83BE-82B5430EE6BC}" }, "geometry": { "type": "Point", "coordinates": [ -80.284538023999971, 25.821387569000024 ] } },
{ "type": "Feature", "properties": { "OBJECTID": 3, "FOLIO": "3049220220920", "ID": 37, "NAME": "West Bird Fire St 37", "ADDRESS": "4200 SW 142ND AVE", "CITY": "Miami-Dade", "ZIPCODE": 33175, "MUNICID": "30", "TYPE": "B", "LAT": 25.72814, "LON": -80.42414, "POINT_X": 845745.12504030007, "POINT_Y": 507295.56258606003, "GlobalID": "{2636A092-18C9-4053-97D6-F1D924297429}" }, "geometry": { "type": "Point", "coordinates": [ -80.424136998999984, 25.728140860000053 ] } },
{ "type": "Feature", "properties": { "OBJECTID": 4, "FOLIO": "3411360000094", "ID": 38, "NAME": "Norland Fire 38", "ADDRESS": "575 NW 199TH ST", "CITY": "Miami Gardens", "ZIPCODE": 33169, "MUNICID": "30", "TYPE": "B", "LAT": 25.95727, "LON": -80.21279, "POINT_X": 914823.16516863997, "POINT_Y": 590939.43363997003, "GlobalID": "{B3264F37-085A-4F10-A3FA-7919F2C40D82}" }, "geometry": { "type": "Point", "coordinates": [ -80.212796672999957, 25.957278926000072 ] } },
{ "type": "Feature", "properties": { "OBJECTID": 5, "FOLIO": "1540120000170", "ID": 40, "NAME": "West Miami Fire St 40", "ADDRESS": "975 SW 62ND AVE", "CITY": "West Miami", "ZIPCODE": 33144, "MUNICID": "15", "TYPE": "B", "LAT": 25.76194, "LON": -80.29556, "POINT_X": 888055.43829571002, "POINT_Y": 519788.57584569999, "GlobalID": "{9820FF39-62D1-430F-86F2-2ED4FDE82C4B}" }, "geometry": { "type": "Point", "coordinates": [ -80.29541897699994, 25.761947761000044 ] } },
{ "type": "Feature", "properties": { "OBJECTID": 6, "FOLIO": "3079050030010", "ID": 6, "NAME": "Modello Fire 6", "ADDRESS": "15890 SW 288TH ST", "CITY": "Miami-Dade", "ZIPCODE": 33033, "MUNICID": "30", "TYPE": "B", "LAT": 25.49905, "LON": -80.44897, "POINT_X": 837915.39396101004, "POINT_Y": 424000.36455649004, "GlobalID": "{3AD3287C-ABBD-4FB7-9C38-E01AED918178}" }, "geometry": { "type": "Point", "coordinates": [ -80.448971722999943, 25.499055597000051 ] } },
{ "type": "Feature", "properties": { "OBJECTID": 7, "FOLIO": "3059040120010", "ID": 36, "NAME": "Hammocks Fire 36", "ADDRESS": "10001 HAMMOCKS BLVD", "CITY": "Miami-Dade", "ZIPCODE": 33196, "MUNICID": "30", "TYPE": "B", "LAT": 25.67319, "LON": -80.44357, "POINT_X": 839433.81265043002, "POINT_Y": 487298.21856744, "GlobalID": "{3C652C48-FF19-43D0-A8E0-06B1AA4AE862}" }, "geometry": { "type": "Point", "coordinates": [ -80.443563421999954, 25.673195636000059 ] } },
{ "type": "Feature", "properties": { "OBJECTID": 8, "FOLIO": "2332090010070", "ID": 27, "NAME": "North Bay Village Fire 27", "ADDRESS": "1275 NE 79TH ST", "CITY": "North Bay Village", "ZIPCODE": 33138, "MUNICID": "23", "TYPE": "B", "LAT": 25.84961, "LON": -80.16713, "POINT_X": 930077.01145484997, "POINT_Y": 551900.82009961002, "GlobalID": "{AFF0E1C5-53E6-4BD6-A348-C3B04BF5DA6B}" }, "geometry": { "type": "Point", "coordinates": [ -80.167130742999973, 25.849619458000063 ] } },
{ "type": "Feature", "properties": { "OBJECTID": 9, "FOLIO": "2822030320020", "ID": 8, "NAME": "Aventura Fire 8", "ADDRESS": "2900 AVENTURA BLVD", "CITY": "Aventura", "ZIPCODE": 33180, "MUNICID": "28", "TYPE": "B", "LAT": 25.9605, "LON": -80.14334, "POINT_X": 937640.12493389007, "POINT_Y": 592255.81303318997, "GlobalID": "{B7DFD4C6-1B22-44C0-BDBC-9FEB450C10E2}" }, "geometry": { "type": "Point", "coordinates": [ -80.143334279999976, 25.960506222000049 ] } },
{ "type": "Feature", "properties": { "OBJECTID": 10, "FOLIO": "3059260030010", "ID": 43, "NAME": "Richmond Fire Station 43", "ADDRESS": "13390 SW 152ND ST", "CITY": "Miami-Dade", "ZIPCODE": 33177, "MUNICID": "30", "TYPE": "B", "LAT": 25.62597, "LON": -80.41008, "POINT_X": 850536.63250077004, "POINT_Y": 470184.72760749998, "GlobalID": "{F95F0632-9A3E-4961-926A-2A705C78DF52}" }, "geometry": { "type": "Point", "coordinates": [ -80.410085762999984, 25.62597792300005 ] } },
{ "type": "Feature", "properties": { "OBJECTID": 11, "FOLIO": "3031030070450", "ID": 7, "NAME": "West Little River Fire 7", "ADDRESS": "9350 NW 22ND AVE", "CITY": "Miami-Dade", "ZIPCODE": 33147, "MUNICID": "30", "TYPE": "B", "LAT": 25.85997, "LON": -80.23449, "POINT_X": 907901.43793019, "POINT_Y": 555530.68711099005, "GlobalID": "{00E27EA3-CE4E-4D70-8E7C-E9A8CD5B1EB1}" }, "geometry": { "type": "Point", "coordinates": [ -80.234490130999973, 25.859976912000036 ] } },
{ "type": "Feature", "properties": { "OBJECTID": 12, "FOLIO": "3040310000171", "ID": 9, "NAME": "Kendall Fire 9", "ADDRESS": "7777 SW 117TH AVE", "CITY": "Miami-Dade", "ZIPCODE": 33183, "MUNICID": "30", "TYPE": "B", "LAT": 25.69545, "LON": -80.38128, "POINT_X": 859908.17785348999, "POINT_Y": 495478.91207905998, "GlobalID": "{BE79EEC8-31E5-4EDD-9F7C-38A17139AEF5}" }, "geometry": { "type": "Point", "coordinates": [ -80.38128521799996, 25.695453140000041 ] } },
{ "type": "Feature", "properties": { "OBJECTID": 13, "FOLIO": "1132060132660", "ID": 30, "NAME": "Miami Shores Fire 30", "ADDRESS": "9500 NE 2ND AVE", "CITY": "Miami Shores", "ZIPCODE": 33138, "MUNICID": "11", "TYPE": "B", "LAT": 25.86281, "LON": -80.19371, "POINT_X": 921306.68722268008, "POINT_Y": 556640.93760802003, "GlobalID": "{5CC49144-EFC8-4FD7-B97B-2B40C1C6C6DC}" }, "geometry": { "type": "Point", "coordinates": [ -80.193707850999942, 25.862810720000027 ] } },
{ "type": "Feature", "properties": { "OBJECTID": 14, "FOLIO": "2730030440020", "ID": 28, "NAME": "Hialeah Gardens Fire 28", "ADDRESS": "8790 NW 103RD ST", "CITY": "Hialeah Gardens", "ZIPCODE": 33016, "MUNICID": "27", "TYPE": "R", "LAT": 25.86799, "LON": -80.33866, "POINT_X": 873627.94721026998, "POINT_Y": 558257.55840952997, "GlobalID": "{B1D1D2FD-DCF2-4284-829F-335CA88362D6}" }, "geometry": { "type": "Point", "coordinates": [ -80.338666374999946, 25.867991307000068 ] } },
{ "type": "Feature", "properties": { "OBJECTID": 15, "FOLIO": "3042320010010", "ID": 15, "NAME": "Key Biscayne Fire 15", "ADDRESS": "2 CRANDON BLVD", "CITY": "Miami-Dade", "ZIPCODE": 33149, "MUNICID": "30", "TYPE": "B", "LAT": 25.70282, "LON": -80.16083, "POINT_X": 932489.32198509004, "POINT_Y": 498559.76404993003, "GlobalID": "{DBB95D17-2EEE-4A75-9272-A5B0D01EE65B}" }, "geometry": { "type": "Point", "coordinates": [ -80.160829316, 25.702827597000066 ] } },
{ "type": "Feature", "properties": { "OBJECTID": 16, "FOLIO": "3030260050010", "ID": 17, "NAME": "Virginia Gardens Fire 17", "ADDRESS": "7050 NW 36TH ST", "CITY": "Miami-Dade", "ZIPCODE": 33166, "MUNICID": "30", "TYPE": "S", "LAT": 25.80902, "LON": -80.31186, "POINT_X": 882555.07579459006, "POINT_Y": 536869.33106161002, "GlobalID": "{84E5B7CB-952C-4D05-A746-57EF33A70936}" }, "geometry": { "type": "Point", "coordinates": [ -80.311859473999959, 25.809021130000076 ] } },
{ "type": "Feature", "properties": { "OBJECTID": 17, "FOLIO": "0622160000020", "ID": 22, "NAME": "Interama Fire 22", "ADDRESS": "15655 BISCAYNE BLVD", "CITY": "North Miami", "ZIPCODE": 33160, "MUNICID": "06", "TYPE": "S", "LAT": 25.91956, "LON": -80.15538, "POINT_X": 933777.68729828997, "POINT_Y": 577347.68757930002, "GlobalID": "{884A8BC4-7623-4058-BFBF-0EC7416E976F}" }, "geometry": { "type": "Point", "coordinates": [ -80.155381216999956, 25.919561686000065 ] } },
{ "type": "Feature", "properties": { "OBJECTID": 18, "FOLIO": "3059150000010", "ID": 24, "NAME": "Tamiami Air Rescue Sta 24", "ADDRESS": "14150 SW 127TH ST", "CITY": "Miami-Dade", "ZIPCODE": 33186, "MUNICID": "30", "TYPE": "A", "LAT": 25.64943, "LON": -80.42099, "POINT_X": 846907.18404939002, "POINT_Y": 478693.13388743001, "GlobalID": "{DF93FFD7-1BE6-46E5-A4B1-AEC25610DA39}" }, "geometry": { "type": "Point", "coordinates": [ -80.420987858, 25.64943170600003 ] } },
{ "type": "Feature", "properties": { "OBJECTID": 19, "FOLIO": "0142050000010", "ID": 39, "NAME": "Port Of Miami Fire St 39", "ADDRESS": "641 EUROPE WAY", "CITY": "Miami", "ZIPCODE": 33132, "MUNICID": "01", "TYPE": "S", "LAT": 25.77485, "LON": -80.16971, "POINT_X": 929400.78796621005, "POINT_Y": 524721.36279428005, "GlobalID": "{2F614129-2751-45DF-BA6D-10A4A5643B20}" }, "geometry": { "type": "Point", "coordinates": [ -80.169708210999943, 25.774856483000065 ] } },
{ "type": "Feature", "properties": { "OBJECTID": 20, "FOLIO": "0940250760010", "ID": 14, "NAME": "South Miami Fire St 14", "ADDRESS": "5860 SW 70TH ST", "CITY": "South Miami", "ZIPCODE": 33143, "MUNICID": "09", "TYPE": "B", "LAT": 25.70585, "LON": -80.2886, "POINT_X": 890408.75464990002, "POINT_Y": 499411.36699472001, "GlobalID": "{1CC5E0E4-36FD-418A-B245-97EFDBC11BFE}" }, "geometry": { "type": "Point", "coordinates": [ -80.28860274799996, 25.705850051000027 ] } },
{ "type": "Feature", "properties": { "OBJECTID": 21, "FOLIO": "3042100000020", "ID": 42, "NAME": "Fisher Island Fire 42", "ADDRESS": "65 FISHER ISLAND DR", "CITY": "Miami-Dade", "ZIPCODE": 33109, "MUNICID": "30", "TYPE": "B", "LAT": 25.76324, "LON": -80.13973, "POINT_X": 939291.68768743007, "POINT_Y": 520564.06205443002, "GlobalID": "{F947DDE4-2645-45EF-96B9-BD7738D2F65E}" }, "geometry": { "type": "Point", "coordinates": [ -80.139737184999944, 25.763244562000068 ] } },
{ "type": "Feature", "properties": { "OBJECTID": 22, "FOLIO": "0621250010050", "ID": 19, "NAME": "North Miami West Fire 19", "ADDRESS": "650 NW 131ST ST", "CITY": "North Miami", "ZIPCODE": 33168, "MUNICID": "06", "TYPE": "B", "LAT": 25.89446, "LON": -80.21021, "POINT_X": 915810.37540956005, "POINT_Y": 568114.49921871, "GlobalID": "{A766A8DE-1543-45C2-94B4-DA186D3F853A}" }, "geometry": { "type": "Point", "coordinates": [ -80.210211026999957, 25.894468103000065 ] } },
{ "type": "Feature", "properties": { "OBJECTID": 23, "FOLIO": "3020100130685", "ID": 44, "NAME": "Palm Springs North 44", "ADDRESS": "7700 NW 186TH ST", "CITY": "Miami-Dade", "ZIPCODE": 33015, "MUNICID": "30", "TYPE": "B", "LAT": 25.94188, "LON": -80.32654, "POINT_X": 877478.74170986004, "POINT_Y": 585137.06742655998, "GlobalID": "{E088477E-11CD-41C7-AE41-AA5E01C30AC6}" }, "geometry": { "type": "Point", "coordinates": [ -80.326536326999985, 25.941888762000076 ] } },
{ "type": "Feature", "properties": { "OBJECTID": 24, "FOLIO": "2220320040145", "ID": 46, "NAME": "Medley Fire 46", "ADDRESS": "10200 NW 116TH WAY", "CITY": "Medley", "ZIPCODE": 33178, "MUNICID": "22", "TYPE": "S", "LAT": 25.87017, "LON": -80.36446, "POINT_X": 865146.43142637005, "POINT_Y": 559008.11687422998, "GlobalID": "{2D513CDE-53CA-445E-BDCA-BE1AD31E27D3}" }, "geometry": { "type": "Point", "coordinates": [ -80.364447761999941, 25.870171506000077 ] } },
{ "type": "Feature", "properties": { "OBJECTID": 25, "FOLIO": "2050120080065", "ID": 49, "NAME": "Pinecrest Fire Station 49", "ADDRESS": "10850 SW 57TH AVE", "CITY": "Pinecrest", "ZIPCODE": 33156, "MUNICID": "20", "TYPE": "R", "LAT": 25.67059, "LON": -80.28443, "POINT_X": 891851.99970724003, "POINT_Y": 486605.06195880001, "GlobalID": "{1E70CF13-7979-4794-AF80-4E92305B52A2}" }, "geometry": { "type": "Point", "coordinates": [ -80.284430393999969, 25.670594981000079 ] } },
{ "type": "Feature", "properties": { "OBJECTID": 26, "FOLIO": "3530330340030", "ID": 48, "NAME": "Fountainebleau Fire 48", "ADDRESS": "8825 NW 18TH TER", "CITY": "Doral", "ZIPCODE": 33172, "MUNICID": "30", "TYPE": "B", "LAT": 25.79111, "LON": -80.33879, "POINT_X": 873727.26241037005, "POINT_Y": 530315.91281550005, "GlobalID": "{410408E3-CB2B-4AFC-92CC-3615D2130179}" }, "geometry": { "type": "Point", "coordinates": [ -80.338791611999966, 25.791115498000067 ] } },
{ "type": "Feature", "properties": { "OBJECTID": 27, "FOLIO": "3530200380630", "ID": 45, "NAME": "Doral Fire 45", "ADDRESS": "9710 NW 58TH ST", "CITY": "Doral", "ZIPCODE": 33178, "MUNICID": "30", "TYPE": "S", "LAT": 25.82573, "LON": -80.35439, "POINT_X": 868535.53120553005, "POINT_Y": 542871.57900320005, "GlobalID": "{BFD6AF04-3450-4745-ADBF-13C1C4D989AE}" }, "geometry": { "type": "Point", "coordinates": [ -80.354382343999987, 25.825730344000078 ] } },
{ "type": "Feature", "properties": { "OBJECTID": 28, "FOLIO": "3040090000175", "ID": 47, "NAME": "Westchester Fire St 47", "ADDRESS": "9361 SW 24TH ST", "CITY": "Miami-Dade", "ZIPCODE": 33165, "MUNICID": "30", "TYPE": "B", "LAT": 25.74769, "LON": -80.34691, "POINT_X": 871134.74989594996, "POINT_Y": 514522.43747280003, "GlobalID": "{2ABB36AB-7053-4020-BCA3-94270737FB05}" }, "geometry": { "type": "Point", "coordinates": [ -80.346908241999984, 25.747698882000066 ] } },
{ "type": "Feature", "properties": { "OBJECTID": 29, "FOLIO": "3030250010100", "ID": 12, "NAME": "MIA Fire Station 12", "ADDRESS": "2100 NW 42ND AVE", "CITY": "Miami-Dade", "ZIPCODE": 33142, "MUNICID": "30", "TYPE": "B", "LAT": 25.79742, "LON": -80.29236, "POINT_X": 888992.56290458003, "POINT_Y": 532689.68766572, "GlobalID": "{3EB5AB57-D8B8-443F-A86F-6A42A5842BB6}" }, "geometry": { "type": "Point", "coordinates": [ -80.292361181999979, 25.79742802800007 ] } },
{ "type": "Feature", "properties": { "OBJECTID": 30, "FOLIO": "1078130090221", "ID": 16, "NAME": "Homestead Fire 16", "ADDRESS": "255 NW 4TH AVE", "CITY": "Homestead", "ZIPCODE": 33030, "MUNICID": "10", "TYPE": "B", "LAT": 25.47233, "LON": -80.48313, "POINT_X": 826685.37692656007, "POINT_Y": 414243.71661140001, "GlobalID": "{AB0286F8-18C9-4333-ACEB-87493B279227}" }, "geometry": { "type": "Point", "coordinates": [ -80.48313290699997, 25.472334642000078 ] } },
{ "type": "Feature", "properties": { "OBJECTID": 31, "FOLIO": "0622290580130", "ID": 20, "NAME": "North Miami East Fire 20", "ADDRESS": "13000 NE 16TH AVE", "CITY": "North Miami", "ZIPCODE": 33161, "MUNICID": "06", "TYPE": "B", "LAT": 25.89572, "LON": -80.16692, "POINT_X": 930037.55417481007, "POINT_Y": 568658.63285120006, "GlobalID": "{AB78CC73-5434-48E6-A607-A65F719BC76F}" }, "geometry": { "type": "Point", "coordinates": [ -80.166927414999975, 25.895722985000077 ] } },
{ "type": "Feature", "properties": { "OBJECTID": 32, "FOLIO": "3011310010030", "ID": 51, "NAME": "Honey Hill Fire 51", "ADDRESS": "4775 NW 199TH ST", "CITY": "Miami-Dade", "ZIPCODE": 33055, "MUNICID": "30", "TYPE": "B", "LAT": 25.95531, "LON": -80.27985, "POINT_X": 892794.12322812004, "POINT_Y": 590097.85898318002, "GlobalID": "{9BFAA9ED-996E-4929-81F1-7F1E20148DCF}" }, "geometry": { "type": "Point", "coordinates": [ -80.279850471999964, 25.955312578000076 ] } },
{ "type": "Feature", "properties": { "OBJECTID": 33, "FOLIO": "3069010420010", "ID": 52, "NAME": "South Miami Heights 52", "ADDRESS": "12105 QUAIL ROOST DR", "CITY": "Miami-Dade", "ZIPCODE": 33177, "MUNICID": "30", "TYPE": "B", "LAT": 25.58624, "LON": -80.38757, "POINT_X": 858020.37471573998, "POINT_Y": 455777.40548208001, "GlobalID": "{AD5187D3-D7EA-471E-B824-1F78C6D5CC3D}" }, "geometry": { "type": "Point", "coordinates": [ -80.387575445999971, 25.586244739000051 ] } },
{ "type": "Feature", "properties": { "OBJECTID": 34, "FOLIO": " ", "ID": 53, "NAME": "Turnpike Fire Station 53", "ADDRESS": "11600 SW TURNPIKE HWY", "CITY": "Miami-Dade", "ZIPCODE": 33186, "MUNICID": "30", "TYPE": "R", "LAT": 25.65874, "LON": -80.38735, "POINT_X": 857972.35986769001, "POINT_Y": 482127.21696262999, "GlobalID": "{E45982A6-0BDE-420A-81B4-CC79C3896EF5}" }, "geometry": { "type": "Point", "coordinates": [ -80.387351452999951, 25.658743001000062 ] } },
{ "type": "Feature", "properties": { "OBJECTID": 35, "FOLIO": "3350320043100", "ID": 50, "NAME": "Perrine Fire Station 50", "ADDRESS": "9798 E HIBISCUS ST", "CITY": "Palmetto Bay", "ZIPCODE": 33157, "MUNICID": "30", "TYPE": "R", "LAT": 25.60331, "LON": -80.34951, "POINT_X": 870536.96224739007, "POINT_Y": 462040.50718392001, "GlobalID": "{B3067E53-B599-4EDB-A5D5-A99956B5DB78}" }, "geometry": { "type": "Point", "coordinates": [ -80.349508600999968, 25.603312782000046 ] } },
{ "type": "Feature", "properties": { "OBJECTID": 36, "FOLIO": "2822100000120", "ID": 33, "NAME": "Aventura South Fire 33", "ADDRESS": "2601 POINT EAST DR", "CITY": "Aventura", "ZIPCODE": 33160, "MUNICID": "28", "TYPE": "R", "LAT": 25.93996, "LON": -80.14829, "POINT_X": 936059.92371642007, "POINT_Y": 584778.12777821999, "GlobalID": "{F17B8675-6315-47BF-81B3-E65B764842CA}" }, "geometry": { "type": "Point", "coordinates": [ -80.148291257999972, 25.939962870000045 ] } },
{ "type": "Feature", "properties": { "OBJECTID": 37, "FOLIO": "3421160021019", "ID": 54, "NAME": "Bunche Park Fire 54", "ADDRESS": "15250 NW 27TH AVE", "CITY": "Miami Gardens", "ZIPCODE": 33054, "MUNICID": "30", "TYPE": "B", "LAT": 25.91333, "LON": -80.24463, "POINT_X": 904453.36727098003, "POINT_Y": 574904.62479302997, "GlobalID": "{07844512-85B8-456F-95E3-BDACE9D7439C}" }, "geometry": { "type": "Point", "coordinates": [ -80.24463570599994, 25.913332848000039 ] } },
{ "type": "Feature", "properties": { "OBJECTID": 38, "FOLIO": "3530280010011", "ID": 87, "NAME": "Fire Headquarters 87", "ADDRESS": "9300 NW 41ST ST", "CITY": "Doral", "ZIPCODE": 33178, "MUNICID": "30", "TYPE": "H", "LAT": 25.8101, "LON": -80.34915, "POINT_X": 870288.28359115997, "POINT_Y": 537200.86258192, "GlobalID": "{040338FB-A89D-4D63-852C-B944A8387F70}" }, "geometry": { "type": "Point", "coordinates": [ -80.349139378999951, 25.810104961000036 ] } },
{ "type": "Feature", "properties": { "OBJECTID": 39, "FOLIO": "3660090220020", "ID": 55, "NAME": "Saga Bay Fire Station 55", "ADDRESS": "21501 SW 87TH AVE", "CITY": "Cutler Bay", "ZIPCODE": 33189, "MUNICID": "30", "TYPE": "S", "LAT": 25.56636, "LON": -80.33094, "POINT_X": 876724.68167715997, "POINT_Y": 448642.81219544, "GlobalID": "{E82928FE-B94A-4DFF-978B-9D32119033DF}" }, "geometry": { "type": "Point", "coordinates": [ -80.330938336999964, 25.566366470000048 ] } },
{ "type": "Feature", "properties": { "OBJECTID": 40, "FOLIO": "3049320250010", "ID": 56, "NAME": "West Sunset Fire St 56", "ADDRESS": "16250 SW 72ND ST", "CITY": "Miami-Dade", "ZIPCODE": 33193, "MUNICID": "30", "TYPE": "B", "LAT": 25.69824, "LON": -80.45615, "POINT_X": 835253.61168654007, "POINT_Y": 496384.35003189999, "GlobalID": "{4F3DE178-7A48-44E6-81E2-57CF3C9B21BB}" }, "geometry": { "type": "Point", "coordinates": [ -80.456141473999935, 25.698242726000046 ] } },
{ "type": "Feature", "properties": { "OBJECTID": 41, "FOLIO": "3049350250010", "ID": 57, "NAME": "West Kendall Fire St 57", "ADDRESS": "8501 SW 127TH AVE", "CITY": "Miami-Dade", "ZIPCODE": 33183, "MUNICID": "30", "TYPE": "R", "LAT": 25.68885, "LON": -80.40107, "POINT_X": 853401.34469543002, "POINT_Y": 493051.4711808, "GlobalID": "{F9479502-DE30-412A-9FB4-E08C666E5C9E}" }, "geometry": { "type": "Point", "coordinates": [ -80.40107755799994, 25.688856925000039 ] } },
{ "type": "Feature", "properties": { "OBJECTID": 42, "FOLIO": "3530070150010", "ID": 69, "NAME": "Doral North Fire 69", "ADDRESS": "11151 NW 74TH ST", "CITY": "Doral", "ZIPCODE": 33178, "MUNICID": "35", "TYPE": "B", "LAT": 25.84107, "LON": -80.37794, "POINT_X": 860757.92275029002, "POINT_Y": 548411.99449635006, "GlobalID": "{DB7CF3F2-2E4A-4CC1-9DC5-CDD3A1C0FB9A}" }, "geometry": { "type": "Point", "coordinates": [ -80.377946161999944, 25.841076638000061 ] } },
{ "type": "Feature", "properties": { "OBJECTID": 43, "FOLIO": "3060190091870", "ID": 70, "NAME": "Coconut Palm Fire 70", "ADDRESS": "11451 SW 248TH ST", "CITY": "Miami-Dade", "ZIPCODE": 33032, "MUNICID": "30", "TYPE": "B", "LAT": 25.53754, "LON": -80.37734, "POINT_X": 861475.94131095998, "POINT_Y": 438092.09397762001, "GlobalID": "{2A972944-0EC7-48E3-8E86-DD429A98D672}" }, "geometry": { "type": "Point", "coordinates": [ -80.377343291999978, 25.537541618000034 ] } },
{ "type": "Feature", "properties": { "OBJECTID": 44, "FOLIO": "3350230010080", "ID": 62, "NAME": "Palmetto Bay North", "ADDRESS": "14251 OLD CUTLER RD", "CITY": "Palmetto Bay", "ZIPCODE": 33158, "MUNICID": "33", "TYPE": "S", "LAT": 25.63777, "LON": -80.3075, "POINT_X": 884353.01883626007, "POINT_Y": 474666.39365967002, "GlobalID": "{E4922A15-1386-4CAD-9A4A-F2004D64901D}" }, "geometry": { "type": "Point", "coordinates": [ -80.307386670999961, 25.637858003000076 ] } },
{ "type": "Feature", "properties": { "OBJECTID": 45, "FOLIO": "3049020380010", "ID": 58, "NAME": "Tamiami Fire Station 58", "ADDRESS": "12700 SW 6TH ST", "CITY": "Miami-Dade", "ZIPCODE": 33184, "MUNICID": "30", "TYPE": "B", "LAT": 25.7618, "LON": -80.40118, "POINT_X": 853247.99967129005, "POINT_Y": 519564.09456549003, "GlobalID": "{79091373-D9BD-4545-903E-2C50ECE31599}" }, "geometry": { "type": "Point", "coordinates": [ -80.401177961999963, 25.761803600000064 ] } },
{ "type": "Feature", "properties": { "OBJECTID": 46, "FOLIO": "3220220010530", "ID": 64, "NAME": "Miami Lakes West Fire 64", "ADDRESS": "15325 NW 77TH CT", "CITY": "Miami Lakes", "ZIPCODE": 33016, "MUNICID": "32", "TYPE": "S", "LAT": 25.90192, "LON": -80.33278, "POINT_X": 877202.75169359997, "POINT_Y": 574466.65154462005, "GlobalID": "{BF81BB02-B9AB-473A-9298-F2EF1432AAF5}" }, "geometry": { "type": "Point", "coordinates": [ -80.327542759999972, 25.91253615200003 ] } },
{ "type": "Feature", "properties": { "OBJECTID": 47, "FOLIO": "3021190010010", "ID": 25, "NAME": "Opa-Locka Airport Fire 25", "ADDRESS": "4600 NW 148TH ST", "CITY": "Miami-Dade", "ZIPCODE": 33054, "MUNICID": "30", "TYPE": "A", "LAT": 25.90912, "LON": -80.27676, "POINT_X": 893901.81193316006, "POINT_Y": 573315.18735154998, "GlobalID": "{161E0541-2A95-4EFF-83FD-3888AF5E6442}" }, "geometry": { "type": "Point", "coordinates": [ -80.276761486999987, 25.909123719000036 ] } },
{ "type": "Feature", "properties": { "OBJECTID": 48, "FOLIO": "3069190020010", "ID": 60, "NAME": "Redland Fire Station 60", "ADDRESS": "17605 SW 248TH ST", "CITY": "Miami-Dade", "ZIPCODE": 33031, "MUNICID": "30", "TYPE": "S", "LAT": 25.5361, "LON": -80.47684, "POINT_X": 828673.24969641003, "POINT_Y": 437427.96879300004, "GlobalID": "{FD720CD8-26BC-43DF-A33E-D39468B276A4}" }, "geometry": { "type": "Point", "coordinates": [ -80.476831244999971, 25.536103397000034 ] } },
{ "type": "Feature", "properties": { "OBJECTID": 49, "FOLIO": "3031300000010", "ID": 59, "NAME": "MIA Northside Fire Sta 59", "ADDRESS": "5680 NW 36TH ST", "CITY": "Miami-Dade", "ZIPCODE": 33166, "MUNICID": "05", "TYPE": "S", "LAT": 25.80647, "LON": -80.28871, "POINT_X": 890179.37480969005, "POINT_Y": 535985.37483679003, "GlobalID": "{79226536-5D98-44AE-83F4-A8E6D51E43E7}" }, "geometry": { "type": "Point", "coordinates": [ -80.288700128999949, 25.806477629000028 ] } },
{ "type": "Feature", "properties": { "OBJECTID": 50, "FOLIO": "3122110010280", "ID": 10, "NAME": "Sunny Isles Fire St 10", "ADDRESS": "175 172ND ST", "CITY": "Sunny Isles Beach", "ZIPCODE": 33160, "MUNICID": "31", "TYPE": "B", "LAT": 25.9356, "LON": -80.12319, "POINT_X": 944323.20359612, "POINT_Y": 583247.77180880005, "GlobalID": "{E2C8CB35-EA3C-4DFB-857A-7BC887939060}" }, "geometry": { "type": "Point", "coordinates": [ -80.123179685999958, 25.93560274400005 ] } },
{ "type": "Feature", "properties": { "OBJECTID": 51, "FOLIO": "0142050000010", "ID": 73, "NAME": "Fireboat Fire Sta 73", "ADDRESS": "903 S AMERICA WAY", "CITY": "Miami", "ZIPCODE": 33132, "MUNICID": "01", "TYPE": "B", "LAT": 25.77944, "LON": -80.18001, "POINT_X": 925983.79877902998, "POINT_Y": 526442.48970788997, "GlobalID": "{C4F0AD98-6DF1-4CCB-B2C3-F9D9FBCD2D1B}" }, "geometry": { "type": "Point", "coordinates": [ -80.180058244999941, 25.779650467000067 ] } },
{ "type": "Feature", "properties": { "OBJECTID": 52, "FOLIO": "3049040022960", "ID": 61, "NAME": "Trail Fire Station 61", "ADDRESS": "15155 SW 10TH ST", "CITY": "Miami-Dade", "ZIPCODE": 33194, "MUNICID": "30", "TYPE": "S", "LAT": 25.75757, "LON": -80.44044, "POINT_X": 840330.81207525998, "POINT_Y": 517971.53136401001, "GlobalID": "{3DF8AF59-2232-4065-BD8F-CF16919A47BF}" }, "geometry": { "type": "Point", "coordinates": [ -80.440445394999983, 25.757578089000049 ] } },
{ "type": "Feature", "properties": { "OBJECTID": 53, "FOLIO": "3012320280010", "ID": 63, "NAME": "Highland Oaks Fire 63", "ADDRESS": "1655 NE 205TH ST", "CITY": "Miami-Dade", "ZIPCODE": 33179, "MUNICID": "30", "TYPE": "S", "LAT": 25.96495, "LON": -80.16953, "POINT_X": 929025.70342186, "POINT_Y": 593818.32285865, "GlobalID": "{D58CF403-819F-4EA2-9277-1A7C514AD8D4}" }, "geometry": { "type": "Point", "coordinates": [ -80.169519991999948, 25.964957581000078 ] } },
{ "type": "Feature", "properties": { "OBJECTID": 54, "FOLIO": "1079210110010", "ID": 66, "NAME": "Village Homestead Fire 66", "ADDRESS": "3100 SE 8TH ST", "CITY": "Homestead", "ZIPCODE": 33035, "MUNICID": "10", "TYPE": "S", "LAT": 25.4622, "LON": -80.43122, "POINT_X": 843825.56228652003, "POINT_Y": 410630.65625603002, "GlobalID": "{BB144DB8-521B-4A78-9451-04BFAA639509}" }, "geometry": { "type": "Point", "coordinates": [ -80.431226895999941, 25.462201376000053 ] } },
{ "type": "Feature", "properties": { "OBJECTID": 55, "FOLIO": "1079290010051", "ID": 65, "NAME": "East Homestead Fire 65", "ADDRESS": "1350 SE 24TH ST", "CITY": "Homestead", "ZIPCODE": 33035, "MUNICID": "10", "TYPE": "B", "LAT": 25.44744, "LON": -80.45893, "POINT_X": 834708.96835802996, "POINT_Y": 405228.13413900998, "GlobalID": "{5EBED472-F4E9-4C68-B042-51864FA1F088}" }, "geometry": { "type": "Point", "coordinates": [ -80.458923871999957, 25.44744105500007 ] } },
{ "type": "Feature", "properties": { "OBJECTID": 56, "FOLIO": "1322270013570", "ID": 76, "NAME": "Bay Harbor Island Fire 76", "ADDRESS": "1165 95TH ST", "CITY": "Bay Harbor Islands", "ZIPCODE": 33154, "MUNICID": "13", "TYPE": "R", "LAT": 25.88591, "LON": -80.13229, "POINT_X": 941407.60269740003, "POINT_Y": 565124.20340791997, "GlobalID": "{94B3AA4F-D9EC-4CA2-B736-B2B72136F2F6}" }, "geometry": { "type": "Point", "coordinates": [ -80.132415557999934, 25.885796672000026 ] } },
{ "type": "Feature", "properties": { "OBJECTID": 57, "FOLIO": "3040280000010", "ID": 88, "NAME": "Logistics Fire Station 88", "ADDRESS": "6000 SW 87TH AVE", "CITY": "Miami-Dade", "ZIPCODE": 33173, "MUNICID": "30", "TYPE": "L", "LAT": 25.71255, "LON": -80.3352, "POINT_X": 875053.50394760002, "POINT_Y": 501767.53237291001, "GlobalID": "{A0A8D7FC-CD9C-4055-9250-39A25DC17CA7}" }, "geometry": { "type": "Point", "coordinates": [ -80.335198498999944, 25.712552628000026 ] } },
{ "type": "Feature", "properties": { "OBJECTID": 58, "FOLIO": "0722100022640", "ID": 78, "NAME": "Eastern Shores Fire 78", "ADDRESS": "16435 NE 35TH AVE", "CITY": "North Miami Beach", "ZIPCODE": 33160, "MUNICID": "07", "TYPE": "R", "LAT": 25.93172, "LON": -80.13578, "POINT_X": 940191.31188026001, "POINT_Y": 581809.40508745005, "GlobalID": "{0C50CFF6-CA8E-4762-B17D-657A5A2B834E}" }, "geometry": { "type": "Point", "coordinates": [ -80.135780222999983, 25.931721224000057 ] } },
{ "type": "Feature", "properties": { "OBJECTID": 59, "FOLIO": "3220130030010", "ID": 1, "NAME": "Miami Lakes Fire 1", "ADDRESS": "16699 NW 67TH AVE", "CITY": "Miami Lakes", "ZIPCODE": 33014, "MUNICID": "32", "TYPE": "B", "LAT": 25.92402, "LON": -80.30895, "POINT_X": 883292.65173128003, "POINT_Y": 578675.25238054001, "GlobalID": "{ADAD5DC9-9094-491E-8734-F77C8E790B8D}" }, "geometry": { "type": "Point", "coordinates": [ -80.308948960999942, 25.924027730000034 ] } },
{ "type": "Feature", "properties": { "OBJECTID": 60, "FOLIO": "3031160000051", "ID": 2, "NAME": "Model Cities Fire 2", "ADDRESS": "6460 NW 27TH AVE", "CITY": "Miami-Dade", "ZIPCODE": 33147, "MUNICID": "30", "TYPE": "B", "LAT": 25.83321, "LON": -80.24222, "POINT_X": 905414.81776788004, "POINT_Y": 545790.19199792005, "GlobalID": "{BD607041-9CE1-497F-B7FC-0182A634C587}" }, "geometry": { "type": "Point", "coordinates": [ -80.242222074999972, 25.833218679000026 ] } },
{ "type": "Feature", "properties": { "OBJECTID": 61, "FOLIO": "3040150000360", "ID": 3, "NAME": "Tropical Park Fire St 3", "ADDRESS": "3911 SW 82ND AVE", "CITY": "Miami-Dade", "ZIPCODE": 33155, "MUNICID": "30", "TYPE": "B", "LAT": 25.73401, "LON": -80.32719, "POINT_X": 877648.22369402007, "POINT_Y": 509582.86114818999, "GlobalID": "{37A90919-57B9-4EFF-9308-0ED45DF23004}" }, "geometry": { "type": "Point", "coordinates": [ -80.327197253999941, 25.734018658000025 ] } },
{ "type": "Feature", "properties": { "OBJECTID": 62, "FOLIO": "3050210010040", "ID": 4, "NAME": "Coral Reef Fire 4", "ADDRESS": "9201 SW 152ND ST", "CITY": "Miami-Dade", "ZIPCODE": 33157, "MUNICID": "30", "TYPE": "B", "LAT": 25.62924, "LON": -80.34221, "POINT_X": 872898.17799359001, "POINT_Y": 471478.35704870999, "GlobalID": "{BBA9CD79-CF0A-4608-A167-2FA30F075362}" }, "geometry": { "type": "Point", "coordinates": [ -80.34220185099997, 25.629247389000057 ] } },
{ "type": "Feature", "properties": { "OBJECTID": 63, "FOLIO": "3069230000290", "ID": 5, "NAME": "Princeton Fire 5", "ADDRESS": "13150 SW 238TH ST", "CITY": "Miami-Dade", "ZIPCODE": 33032, "MUNICID": "30", "TYPE": "B", "LAT": 25.54563, "LON": -80.40429, "POINT_X": 852575.87448667001, "POINT_Y": 440993.18761232001, "GlobalID": "{4D1281AB-D205-4B3D-8EE3-9FE159967C7A}" }, "geometry": { "type": "Point", "coordinates": [ -80.404294686999947, 25.54563590600003 ] } },
{ "type": "Feature", "properties": { "OBJECTID": 64, "FOLIO": "3421030010700", "ID": 11, "NAME": "Miami Gardens Fire 11", "ADDRESS": "18705 NW 27TH AVE", "CITY": "Miami Gardens", "ZIPCODE": 33056, "MUNICID": "30", "TYPE": "B", "LAT": 25.94488, "LON": -80.24515, "POINT_X": 904221.51344677003, "POINT_Y": 586370.18435571005, "GlobalID": "{AF489E87-1758-46FD-9BD2-E5EAD5D567D6}" }, "geometry": { "type": "Point", "coordinates": [ -80.245140085999935, 25.944880063000028 ] } },
{ "type": "Feature", "properties": { "OBJECTID": 65, "FOLIO": "3040280000010", "ID": 13, "NAME": "East Kendall Fire 13", "ADDRESS": "6000 SW 87TH AVE", "CITY": "Miami-Dade", "ZIPCODE": 33173, "MUNICID": "30", "TYPE": "B", "LAT": 25.71288, "LON": -80.33519, "POINT_X": 875054.43885959999, "POINT_Y": 501887.59381302999, "GlobalID": "{3E8765C4-D2AA-4065-92A5-38AC9AD51E2D}" }, "geometry": { "type": "Point", "coordinates": [ -80.335193823999987, 25.712882938000064 ] } },
{ "type": "Feature", "properties": { "OBJECTID": 66, "FOLIO": "3022140080010", "ID": 21, "NAME": "Haulover Fire 21", "ADDRESS": "10500 COLLINS AVE", "CITY": "Miami-Dade", "ZIPCODE": 33154, "MUNICID": "30", "TYPE": "B", "LAT": 25.90201, "LON": -80.12523, "POINT_X": 943728.61313156004, "POINT_Y": 571036.13685342006, "GlobalID": "{C0196F4B-73FD-44C6-BB87-E615D140428D}" }, "geometry": { "type": "Point", "coordinates": [ -80.125236747999963, 25.902018528000042 ] } },
{ "type": "Feature", "properties": { "OBJECTID": 67, "FOLIO": "3050030001330", "ID": 23, "NAME": "Suniland Fire Station 23", "ADDRESS": "7825 SW 104TH ST", "CITY": "Miami-Dade", "ZIPCODE": 33156, "MUNICID": "30", "TYPE": "B", "LAT": 25.67412, "LON": -80.32123, "POINT_X": 879722.56174395001, "POINT_Y": 487823.53107993002, "GlobalID": "{FC1BDB52-1D5A-42DE-ACA5-3FFFA5DC7102}" }, "geometry": { "type": "Point", "coordinates": [ -80.321235910999974, 25.674123264000059 ] } },
{ "type": "Feature", "properties": { "OBJECTID": 68, "FOLIO": "3021330010010", "ID": 26, "NAME": "Opa-Locka Fire St 26", "ADDRESS": "3190 NW 119TH ST", "CITY": "Miami-Dade", "ZIPCODE": 33167, "MUNICID": "30", "TYPE": "B", "LAT": 25.88213, "LON": -80.25089, "POINT_X": 902462.98518913006, "POINT_Y": 563553.40302246006, "GlobalID": "{C611D687-CF76-4DFE-879E-BB62FDD1ABCE}" }, "geometry": { "type": "Point", "coordinates": [ -80.250887872999954, 25.882135116000029 ] } },
{ "type": "Feature", "properties": { "OBJECTID": 69, "FOLIO": "2540050010511", "ID": 29, "NAME": "Sweetwater Fire St 29", "ADDRESS": "351 SW 107th Ave", "CITY": "Sweetwater", "ZIPCODE": 33174, "MUNICID": "25", "TYPE": "B", "LAT": 25.76526, "LON": -80.36832, "POINT_X": 864054.343, "POINT_Y": 520838.851, "GlobalID": "{4629DED1-A28F-4B30-B2E8-4A85866832E8}" }, "geometry": { "type": "Point", "coordinates": [ -80.368326608999951, 25.765172661000065 ] } },
{ "type": "Feature", "properties": { "OBJECTID": 70, "FOLIO": "0722090060120", "ID": 31, "NAME": "North Miami Beach Fire 31", "ADDRESS": "17050 NE 19TH AVE", "CITY": "North Miami Beach", "ZIPCODE": 33162, "MUNICID": "07", "TYPE": "B", "LAT": 25.93285, "LON": -80.16259, "POINT_X": 931377.68780805997, "POINT_Y": 582164.12431979005, "GlobalID": "{34BC2E1D-930F-43D2-B0D2-D2B283C19506}" }, "geometry": { "type": "Point", "coordinates": [ -80.162588866999954, 25.932854557000041 ] } },
{ "type": "Feature", "properties": { "OBJECTID": 71, "FOLIO": "0722070810010", "ID": 32, "NAME": "Uleta Fire Station 32", "ADDRESS": "358 NE 168TH ST", "CITY": "North Miami Beach", "ZIPCODE": 33162, "MUNICID": "07", "TYPE": "B", "LAT": 25.92892, "LON": -80.1929, "POINT_X": 921424.88319079007, "POINT_Y": 580673.14012640005, "GlobalID": "{B5BB307C-9EA3-4C45-8CD0-A7930FA0F405}" }, "geometry": { "type": "Point", "coordinates": [ -80.192898836999973, 25.928924539000036 ] } },
{ "type": "Feature", "properties": { "OBJECTID": 72, "FOLIO": "0622190320030", "ID": 18, "NAME": "Fire Station 18", "ADDRESS": "13810 NE 5TH AVE", "CITY": "North Miami", "ZIPCODE": 33161, "MUNICID": "06", "TYPE": "R", "LAT": 25.90227, "LON": -80.18924, "POINT_X": 922686.16088796, "POINT_Y": 570997.76347739005, "GlobalID": "{53598FAA-2146-400A-89CD-70EDEFA38D0A}" }, "geometry": { "type": "Point", "coordinates": [ -80.189243501999954, 25.90228495100007 ] } },
{ "type": "Feature", "properties": { "OBJECTID": 73, "FOLIO": "3040190050460", "ID": 41, "NAME": "FIre Station 41", "ADDRESS": "4911 SW 117TH AVE", "CITY": "Miami-Dade", "ZIPCODE": 33175, "MUNICID": "30", "TYPE": "R", "LAT": 25.72089, "LON": -80.38243, "POINT_X": 859485.75225200003, "POINT_Y": 504725.14835600002, "GlobalID": "{F0E11E71-6830-4D23-A71F-BAE7BB584F44}" }, "geometry": { "type": "Point", "coordinates": [ -80.382436687999984, 25.720897920000027 ] } }
]
}
