{"type":"FeatureCollection","crs":{"type":"name","properties":{"name":"EPSG:4326"}},"features":[{"type":"Feature","id":1,"geometry":{"type":"Point","coordinates":[-80.2983704659573,25.9101115157019]},"properties":{"OBJECTID":1,"FOLIO":"3220240180030","NAME":"Northwest Station","ADDRESS":"5975 Miami Lakes Dr","CITY":"Miami Lakes","ZIPCODE":33014,"LAT":25.910110000000003,"LON":-80.298380000000009,"POINT_X":886796.62456204,"POINT_Y":573635.62496909}},{"type":"Feature","id":2,"geometry":{"type":"Point","coordinates":[-80.3433907491466,25.7976404263779]},"properties":{"OBJECTID":2,"FOLIO":"3530280110010","NAME":"Midwest Station","ADDRESS":"9101 NW 25th St","CITY":"Doral","ZIPCODE":33172,"LAT":25.79764,"LON":-80.343390000000014,"POINT_X":872202.12455162,"POINT_Y":532679.891592}},{"type":"Feature","id":3,"geometry":{"type":"Point","coordinates":[-80.38111142744,25.6961367605682]},"properties":{"OBJECTID":3,"FOLIO":"3040310000170","NAME":"Kendall Station","ADDRESS":"7707 SW 117th Ave","CITY":"Miami-Dade","ZIPCODE":33183,"LAT":25.696130000000004,"LON":-80.38112000000001,"POINT_X":859964.24384371,"POINT_Y":495727.64430242}},{"type":"Feature","id":4,"geometry":{"type":"Point","coordinates":[-80.4229279383387,25.6746407715391]},"properties":{"OBJECTID":4,"FOLIO":"3059030122860","NAME":"Hammocks Station","ADDRESS":"10000 SW 142nd Ave","CITY":"Miami-Dade","ZIPCODE":33186,"LAT":25.674640000000004,"LON":-80.422930000000008,"POINT_X":846228.10005621007,"POINT_Y":487852.58172252}},{"type":"Feature","id":5,"geometry":{"type":"Point","coordinates":[-80.1549734589619,25.9201097080828]},"properties":{"OBJECTID":5,"FOLIO":"0622160000020","NAME":"Intracoastal Station","ADDRESS":"15665 Biscayne Blvd","CITY":"North Miami","ZIPCODE":33160,"LAT":25.9201,"LON":-80.154980000000009,"POINT_X":933910.43166298,"POINT_Y":577547.74476951}},{"type":"Feature","id":6,"geometry":{"type":"Point","coordinates":[-80.3665047077324,25.5710127342968]},"properties":{"OBJECTID":6,"FOLIO":"3660070000551","NAME":"South Station","ADDRESS":"10800 SW 211th St","CITY":"Cutler Bay","ZIPCODE":33189,"LAT":25.57101,"LON":-80.3665,"POINT_X":864991.8121186,"POINT_Y":450273.96921586}},{"type":"Feature","id":7,"geometry":{"type":"Point","coordinates":[-80.2698045241142,25.7967217209403]},"properties":{"OBJECTID":7,"FOLIO":"3031290000011","NAME":"MIA Airport Station","ADDRESS":"PO BOX 592075, Bldg 3033","CITY":"Miami-Dade","ZIPCODE":33102,"LAT":25.79672,"LON":-80.2698,"POINT_X":896415.74984475,"POINT_Y":532473.49969836}},{"type":"Feature","id":8,"geometry":{"type":"Point","coordinates":[-80.2099620522117,25.849280274731]},"properties":{"OBJECTID":8,"FOLIO":"3031110000192","NAME":"Northside Station","ADDRESS":"799 NW 81st St","CITY":"Miami-Dade","ZIPCODE":33150,"LAT":25.849280000000004,"LON":-80.209960000000009,"POINT_X":915991.05846308,"POINT_Y":551690.54623794}}]}